[{"id":"1","title":"зал.ст. Боярка","city":"Боярка","lat":"50.316574","lng":"30.299635"},{"id":"2","title":"зал.ст. Боярка","city":"Боярка","lat":"50.316605","lng":"30.299500"},{"id":"3","title":"ДАЇ м.Боярка","city":"Боярка","lat":"50.313416","lng":"30.299156"},{"id":"4","title":"ДАЇ м.Боярка","city":"Боярка","lat":"50.313294","lng":"30.299327"},{"id":"5","title":"вул.Київська","city":"Боярка","lat":"50.312048","lng":"30.305008"},{"id":"6","title":"вул.Київська","city":"Боярка","lat":"50.312040","lng":"30.304888"},{"id":"7","title":"вул.Тарасівська","city":"Боярка","lat":"50.311405","lng":"30.307943"},{"id":"8","title":"вул.Тарасівська","city":"Боярка","lat":"50.310837","lng":"30.308372"},{"id":"9","title":"вул.Шевченка","city":"Боярка","lat":"50.311343","lng":"30.308562"},{"id":"10","title":"вул.Польова","city":"Боярка","lat":"50.309603","lng":"30.312244"},{"id":"11","title":"вул.Польова","city":"Боярка","lat":"50.309573","lng":"30.312131"},{"id":"12","title":"вул.Заміська","city":"Боярка","lat":"50.309102","lng":"30.314134"},{"id":"13","title":"вул.Заміська","city":"Боярка","lat":"50.309225","lng":"30.314462"},{"id":"14","title":"Боярській дім культури (Клуб)","city":"Боярка","lat":"50.308695","lng":"30.316962"},{"id":"15","title":"Боярській дім культури (Клуб)","city":"Боярка","lat":"50.308580","lng":"30.316743"},{"id":"16","title":"Зелений провулок","city":"Боярка","lat":"50.307390","lng":"30.324360"},{"id":"17","title":"Зелений провулок","city":"Боярка","lat":"50.307486","lng":"30.324915"},{"id":"18","title":"вул.Марка Шляхового","city":"Боярка","lat":"50.307369","lng":"30.330725"},{"id":"19","title":"вул.Марка Шляхового","city":"Боярка","lat":"50.307549","lng":"30.330511"},{"id":"20","title":"Обласний протитуберкульозний диспансер","city":"Боярка","lat":"50.305642","lng":"30.332005"},{"id":"21","title":"Обласний протитуберкульозний диспансер","city":"Боярка","lat":"50.305568","lng":"30.332748"},{"id":"22","title":"вул. с/г Технікум","city":"Боярка","lat":"50.299110","lng":"30.350728"},{"id":"23","title":"вул. с/г Технікум","city":"Боярка","lat":"50.299260","lng":"30.350593"},{"id":"24","title":"БКЕіПР","city":"Боярка","lat":"50.298205","lng":"30.358011"},{"id":"25","title":"БКЕіПР","city":"Боярка","lat":"50.298211","lng":"30.357813"},{"id":"26","title":"вул.Самійленка","city":"Боярка","lat":"50.309621","lng":"30.302941"},{"id":"27","title":"вул.Самійленка","city":"Боярка","lat":"50.309715","lng":"30.302768"},{"id":"28","title":"вул.1-а Піщана","city":"Боярка","lat":"50.306864","lng":"30.301004"},{"id":"29","title":"вул.1-а Піщана","city":"Боярка","lat":"50.306954","lng":"30.301299"},{"id":"30","title":"Центральна районна лікарня (протитуб. від.)","city":"Боярка","lat":"50.304266","lng":"30.309554"},{"id":"31","title":"Центральна районна лікарня (протитуб. від.)","city":"Боярка","lat":"50.304394","lng":"30.309366"},{"id":"32","title":"Нове кладовище","city":"Боярка","lat":"50.317306","lng":"30.346236"},{"id":"33","title":"Нове кладовище","city":"Боярка","lat":"50.317339","lng":"30.348039"},{"id":"119","title":"вул.Шевченка","city":"Боярка","lat":"50.311343","lng":"30.308562"},{"id":"120","title":"вул.Кібенка","city":"Боярка","lat":"50.313862","lng":"30.309102"},{"id":"121","title":"вул.Кібенка","city":"Боярка","lat":"50.313916","lng":"30.308939"},{"id":"122","title":"вул.Боярська","city":"Боярка","lat":"50.317155","lng":"30.310045"},{"id":"123","title":"вул.Боярська","city":"Боярка","lat":"50.317324","lng":"30.309941"},{"id":"124","title":"вул.Амосова","city":"Боярка","lat":"50.322608","lng":"30.313063"},{"id":"125","title":"вул.Амосова","city":"Боярка","lat":"50.322984","lng":"30.313084"},{"id":"193","title":"пл.Леніна","city":"Боярка","lat":"50.317412","lng":"30.297838"},{"id":"194","title":"пл.Леніна","city":"Боярка","lat":"50.317513","lng":"30.297415"},{"id":"195","title":"м.Боярка","city":"Боярка","lat":"50.317937","lng":"30.298528"},{"id":"196","title":"м.Боярка","city":"Боярка","lat":"50.318157","lng":"30.298191"},{"id":"197","title":"Київська обл. дитяча лікарня","city":"Боярка","lat":"50.319984","lng":"30.294483"},{"id":"198","title":"Київська обл. дитяча лікарня","city":"Боярка","lat":"50.319581","lng":"30.294749"},{"id":"199","title":"Дитячий дім","city":"Боярка","lat":"50.323991","lng":"30.289355"},{"id":"200","title":"Дитячий дім","city":"Боярка","lat":"50.323878","lng":"30.289162"},{"id":"201","title":"Відділення поліції","city":"Боярка","lat":"50.327000","lng":"30.285524"},{"id":"202","title":"Відділення поліції","city":"Боярка","lat":"50.326688","lng":"30.285603"},{"id":"203","title":"завод ВЕНТС","city":"Боярка","lat":"50.328164","lng":"30.278739"},{"id":"204","title":"завод ВЕНТС","city":"Боярка","lat":"50.327930","lng":"30.279047"},{"id":"205","title":"Центральна лікарня","city":"Боярка","lat":"50.331652","lng":"30.275593"},{"id":"206","title":"Центральна лікарня","city":"Боярка","lat":"50.331611","lng":"30.275339"},{"id":"207","title":"Центральна лікарня","city":"Боярка","lat":"50.331758","lng":"30.276389"},{"id":"208","title":"вул.Лінійна (Школа №3)","city":"Боярка","lat":"50.333484","lng":"30.280335"},{"id":"209","title":"вул.Лінійна (Школа №3)","city":"Боярка","lat":"50.333584","lng":"30.280273"},{"id":"210","title":"вул.Молодіжна","city":"Боярка","lat":"50.336678","lng":"30.285826"},{"id":"211","title":"вул.Молодіжна","city":"Боярка","lat":"50.336651","lng":"30.285498"},{"id":"212","title":"вул.Мічуріна","city":"Боярка","lat":"50.340782","lng":"30.282794"},{"id":"213","title":"вул.Мічуріна","city":"Боярка","lat":"50.339859","lng":"30.283073"},{"id":"214","title":"вул.50-річчя Жовтня","city":"Боярка","lat":"50.343511","lng":"30.280364"},{"id":"215","title":"Квітникарство","city":"Боярка","lat":"50.344897","lng":"30.278519"},{"id":"216","title":"Квітникарство","city":"Боярка","lat":"50.344995","lng":"30.277835"},{"id":"217","title":"вул.Магістральна","city":"Боярка","lat":"50.344184","lng":"30.282580"},{"id":"218","title":"вул.Магістральна","city":"Боярка","lat":"50.344131","lng":"30.280805"},{"id":"219","title":"вул.50-річчя Жовтня","city":"Боярка","lat":"50.344707","lng":"30.280809"},{"id":"220","title":"Мототрек","city":"Боярка","lat":"50.350748","lng":"30.263957"},{"id":"221","title":"Мототрек","city":"Боярка","lat":"50.350429","lng":"30.264338"},{"id":"293","title":"Парк Шевченка","city":"Боярка","lat":"50.340560","lng":"30.294548"},{"id":"294","title":"Парк Шевченка","city":"Боярка","lat":"50.340204","lng":"30.293223"},{"id":"295","title":"вул.Ватутіна","city":"Боярка","lat":"50.324093","lng":"30.295271"},{"id":"296","title":"Полтавський провулок","city":"Боярка","lat":"50.323761","lng":"30.295229"},{"id":"297","title":"Міськвиконком","city":"Боярка","lat":"50.328056","lng":"30.292297"},{"id":"299","title":"Міськвиконком","city":"Боярка","lat":"50.327419","lng":"30.292466"},{"id":"303","title":"ВЕНТС-1","city":"Боярка","lat":"50.330169","lng":"30.289881"},{"id":"304","title":"вул.Соборності","city":"Боярка","lat":"50.329662","lng":"30.290720"},{"id":"305","title":"вул.Соборності","city":"Боярка","lat":"50.330360","lng":"30.290582"},{"id":"306","title":"Завод ВЕНТС","city":"Боярка","lat":"50.331017","lng":"30.282322"},{"id":"307","title":"Завод ВЕНТС","city":"Боярка","lat":"50.330933","lng":"30.281968"},{"id":"308","title":"зал.ст. Тарасівка","city":"Боярка","lat":"50.343151","lng":"30.300932"},{"id":"309","title":"зал.ст. Тарасівка","city":"Боярка","lat":"50.343391","lng":"30.300711"},{"id":"310","title":"зал.ст. Тарасівка","city":"Боярка","lat":"50.343429","lng":"30.300301"},{"id":"311","title":"зал.ст. Тарасівка","city":"Боярка","lat":"50.343256","lng":"30.300011"},{"id":"312","title":"зал.ст. Тарасівка","city":"Боярка","lat":"50.343168","lng":"30.300129"},{"id":"363","title":"Центральна лікарня","city":"Боярка","lat":"50.331440","lng":"30.277859"},{"id":"365","title":"Компресорна станція","city":"Боярка","lat":"50.350292","lng":"30.289623"},{"id":"366","title":"Компресорна станція","city":"Боярка","lat":"50.349968","lng":"30.288706"},{"id":"367","title":"Компресорна станція","city":"Боярка","lat":"50.349798","lng":"30.289339"},{"id":"433","title":"вул.Богдана Хмельницького","city":"Боярка","lat":"50.343418","lng":"30.294649"},{"id":"434","title":"вул.Богдана Хмельницького","city":"Боярка","lat":"50.343590","lng":"30.294060"},{"id":"435","title":"вул.Високовольтна","city":"Боярка","lat":"50.343863","lng":"30.286129"},{"id":"436","title":"вул.Високовольтна","city":"Боярка","lat":"50.343982","lng":"30.285795"},{"id":"463","title":"Центр творчості молоді","city":"Боярка","lat":"50.334085","lng":"30.287483"},{"id":"464","title":"Центр творчості молоді","city":"Боярка","lat":"50.334395","lng":"30.287821"},{"id":"465","title":"Центр творчості молоді","city":"Боярка","lat":"50.334758","lng":"30.287287"},{"id":"466","title":"вул.Сагайдачного","city":"Боярка","lat":"50.334799","lng":"30.293389"},{"id":"467","title":"вул.Сагайдачного","city":"Боярка","lat":"50.334867","lng":"30.293172"},{"id":"468","title":"вул.Свободи (Школа №5)","city":"Боярка","lat":"50.337554","lng":"30.293732"},{"id":"469","title":"вул.Свободи (Школа №5)","city":"Боярка","lat":"50.337562","lng":"30.293555"},{"id":"470","title":"вул.Богдана Хмельницького","city":"Боярка","lat":"50.346532","lng":"30.295123"},{"id":"471","title":"вул.Богдана Хмельницького","city":"Боярка","lat":"50.346299","lng":"30.295291"},{"id":"36","title":"Військова частина","city":"Віта-Поштова","lat":"50.316196","lng":"30.362819"},{"id":"37","title":"Військова частина","city":"Віта-Поштова","lat":"50.316528","lng":"30.361785"},{"id":"38","title":"Сільська рада Віти-Поштової","city":"Віта-Поштова","lat":"50.314487","lng":"30.376513"},{"id":"39","title":"Сільська рада Віти-Поштової","city":"Віта-Поштова","lat":"50.314713","lng":"30.376318"},{"id":"40","title":"вул.Мічуріна","city":"Віта-Поштова","lat":"50.316278","lng":"30.378136"},{"id":"41","title":"вул.Мічуріна","city":"Віта-Поштова","lat":"50.316234","lng":"30.377907"},{"id":"42","title":"вул.Шевченка","city":"Віта-Поштова","lat":"50.318128","lng":"30.379530"},{"id":"43","title":"вул.Шевченка","city":"Віта-Поштова","lat":"50.318267","lng":"30.379109"},{"id":"44","title":"Озера","city":"Віта-Поштова","lat":"50.319968","lng":"30.380827"},{"id":"45","title":"Озера","city":"Віта-Поштова","lat":"50.321097","lng":"30.378947"},{"id":"46","title":"вул.Одеська","city":"Віта-Поштова","lat":"50.322643","lng":"30.386228"},{"id":"47","title":"вул.Одеська","city":"Віта-Поштова","lat":"50.322639","lng":"30.385701"},{"id":"48","title":"с.Віта-Поштова","city":"Віта-Поштова","lat":"50.320110","lng":"30.389000"},{"id":"49","title":"с.Віта-Поштова","city":"Віта-Поштова","lat":"50.320344","lng":"30.389856"},{"id":"132","title":"вул.Ужгородська","city":"Крюківщина","lat":"50.364441","lng":"30.354182"},{"id":"133","title":"вул.Ужгородська","city":"Крюківщина","lat":"50.364670","lng":"30.354184"},{"id":"134","title":"вул.Ярова","city":"Крюківщина","lat":"50.368607","lng":"30.365133"},{"id":"135","title":"вул.Ярова","city":"Крюківщина","lat":"50.368752","lng":"30.364651"},{"id":"136","title":"вул.Одеська","city":"Крюківщина","lat":"50.372295","lng":"30.371946"},{"id":"137","title":"вул.Одеська","city":"Крюківщина","lat":"50.372039","lng":"30.371221"},{"id":"138","title":"вул.Дружби","city":"Крюківщина","lat":"50.374841","lng":"30.375415"},{"id":"139","title":"вул.Дружби","city":"Крюківщина","lat":"50.375102","lng":"30.375338"},{"id":"140","title":"ж/к Європейське Місто","city":"Крюківщина","lat":"50.377212","lng":"30.378571"},{"id":"141","title":"ж/к Європейське Місто","city":"Крюківщина","lat":"50.377643","lng":"30.378785"},{"id":"511","title":"Школа","city":"Крюківщина","lat":"50.375294","lng":"30.370607"},{"id":"512","title":"Школа","city":"Крюківщина","lat":"50.375463","lng":"30.370911"},{"id":"513","title":"вул.Мічуріна","city":"Крюківщина","lat":"50.372631","lng":"30.371114"},{"id":"514","title":"вул.Мічуріна","city":"Крюківщина","lat":"50.371874","lng":"30.372005"},{"id":"515","title":"вул.Парникова","city":"Крюківщина","lat":"50.371277","lng":"30.376470"},{"id":"516","title":"вул.Парникова","city":"Крюківщина","lat":"50.371445","lng":"30.376310"},{"id":"517","title":"ж/к Молодіжне містечко","city":"Крюківщина","lat":"50.370215","lng":"30.384697"},{"id":"518","title":"ж/к Молодіжне містечко","city":"Крюківщина","lat":"50.370478","lng":"30.384367"},{"id":"50","title":"Чабани-1","city":"Чабани","lat":"50.336535","lng":"30.408595"},{"id":"51","title":"Чабани-1","city":"Чабани","lat":"50.336271","lng":"30.407227"},{"id":"52","title":"Чабани-2","city":"Чабани","lat":"50.346218","lng":"30.423025"},{"id":"53","title":"Чабани-2","city":"Чабани","lat":"50.345360","lng":"30.420675"},{"id":"54","title":"г-т Нова лінія","city":"Чабани","lat":"50.353019","lng":"30.433007"},{"id":"55","title":"АТБ-Маркет","city":"Чабани","lat":"50.353967","lng":"30.433706"},{"id":"531","title":"суп-т Мегамаркет","city":"Чабани","lat":"50.346365","lng":"30.420978"},{"id":"532","title":"суп-т Мегамаркет","city":"Чабани","lat":"50.346325","lng":"30.421479"},{"id":"56","title":"Одеський ринок","city":"Київ","lat":"50.364601","lng":"30.450117"},{"id":"57","title":"Одеський ринок","city":"Київ","lat":"50.364430","lng":"30.449353"},{"id":"58","title":"ст.м.Теремки","city":"Київ","lat":"50.366127","lng":"30.452545"},{"id":"59","title":" ст.м.Теремки","city":"Київ","lat":"50.366703","lng":"30.452789"},{"id":"60","title":"пр-т Академіка Глушкова","city":"Київ","lat":"50.369100","lng":"30.457236"},{"id":"61","title":"пр-т Академіка Глушкова","city":"Київ","lat":"50.368458","lng":"30.455427"},{"id":"62","title":"Льодовий стадіон","city":"Київ","lat":"50.374186","lng":"30.464942"},{"id":"63","title":"Льодовий стадіон","city":"Київ","lat":"50.374045","lng":"30.463976"},{"id":"64","title":"ст.м.Іподром","city":"Київ","lat":"50.376743","lng":"30.468832"},{"id":"65","title":"ст.м.Іподром","city":"Київ","lat":"50.376144","lng":"30.467094"},{"id":"66","title":"Автостанція Південна","city":"Київ","lat":"50.378559","lng":"30.471740"},{"id":"67","title":"Автостанція Південна","city":"Київ","lat":"50.378365","lng":"30.470640"},{"id":"68","title":"ст.м.Виставковий центр","city":"Київ","lat":"50.381460","lng":"30.478692"},{"id":"69","title":"ст.м.Виставковий центр","city":"Київ","lat":"50.380959","lng":"30.476259"},{"id":"70","title":"вул.Васильківська","city":"Київ","lat":"50.383159","lng":"30.482802"},{"id":"71","title":"вул.Васильківська","city":"Київ","lat":"50.382912","lng":"30.481702"},{"id":"72","title":"Готель Голосіївський","city":"Київ","lat":"50.384595","lng":"30.486653"},{"id":"73","title":"Готель Голосіївський","city":"Київ","lat":"50.384200","lng":"30.484931"},{"id":"74","title":"Кінотеатр Загреб","city":"Київ","lat":"50.386621","lng":"30.491607"},{"id":"75","title":"Кінотеатр Загреб","city":"Київ","lat":"50.386265","lng":"30.490140"},{"id":"76","title":"пров.Коломийський","city":"Київ","lat":"50.388017","lng":"30.495184"},{"id":"77","title":"пров.Коломийський","city":"Київ","lat":"50.388424","lng":"30.495535"},{"id":"78","title":"Голосіївський парк","city":"Київ","lat":"50.390276","lng":"30.500814"},{"id":"79","title":"Голосіївський парк","city":"Київ","lat":"50.390727","lng":"30.501365"},{"id":"80","title":"вул.Михайла Стельмаха","city":"Київ","lat":"50.392233","lng":"30.505475"},{"id":"81","title":"вул.Михайла Стельмаха","city":"Київ","lat":"50.392283","lng":"30.505108"},{"id":"82","title":"ст.м.Голосіївська","city":"Київ","lat":"50.397717","lng":"30.510490"},{"id":"83","title":"ст.м.Голосіївська","city":"Київ","lat":"50.396873","lng":"30.509363"},{"id":"84","title":"пров. Деміївський","city":"Київ","lat":"50.402130","lng":"30.515522"},{"id":"85","title":"пров. Деміївський","city":"Київ","lat":"50.402470","lng":"30.515092"},{"id":"86","title":"ст.м.Деміївська","city":"Київ","lat":"50.404537","lng":"30.517416"},{"id":"87","title":"ст.м.Деміївська","city":"Київ","lat":"50.404744","lng":"30.516583"},{"id":"88","title":"Храм всіх святих","city":"Київ","lat":"50.409671","lng":"30.527541"},{"id":"89","title":"ст.м.Либідська","city":"Київ","lat":"50.413052","lng":"30.525658"},{"id":"90","title":"ст.м.Либідська","city":"Київ","lat":"50.412018","lng":"30.524595"},{"id":"91","title":"вул.Ковпака","city":"Київ","lat":"50.416640","lng":"30.523474"},{"id":"92","title":"ст.м.Палац Україна","city":"Київ","lat":"50.420400","lng":"30.521060"},{"id":"93","title":"вул.Євгена Коновальця","city":"Київ","lat":"50.423542","lng":"30.518992"},{"id":"94","title":"вул.Лабораторна","city":"Київ","lat":"50.425450","lng":"30.517836"},{"id":"95","title":"вул.Федорова","city":"Київ","lat":"50.428422","lng":"30.516237"},{"id":"96","title":"вул.Ділова","city":"Київ","lat":"50.430727","lng":"30.516192"},{"id":"97","title":"ст.м.Олімпійська","city":"Київ","lat":"50.432224","lng":"30.516152"},{"id":"98","title":"вул.Велика Васильківська","city":"Київ","lat":"50.436046","lng":"30.514874"},{"id":"99","title":"м-н Добродій","city":"Київ","lat":"50.436043","lng":"30.512325"},{"id":"100","title":"Готель Кооператор","city":"Київ","lat":"50.436340","lng":"30.507927"},{"id":"101","title":"вул.Паньківська","city":"Київ","lat":"50.439214","lng":"30.502481"},{"id":"102","title":"вул.Льва Толстого","city":"Київ","lat":"50.441734","lng":"30.499322"},{"id":"103","title":"вул.Жилянська","city":"Київ","lat":"50.442727","lng":"30.494356"},{"id":"104","title":"Центральний залізничний вокзал","city":"Київ","lat":"50.440934","lng":"30.490037"},{"id":"105","title":"Центральний залізничний вокзал","city":"Київ","lat":"50.440731","lng":"30.490326"},{"id":"106","title":"вул.Симона Петлюри","city":"Київ","lat":"50.442322","lng":"30.495398"},{"id":"107","title":"вул.Льва Толстого","city":"Київ","lat":"50.439752","lng":"30.498217"},{"id":"108","title":"вул.Паньківська","city":"Київ","lat":"50.437489","lng":"30.501185"},{"id":"109","title":"Центр зайнятості","city":"Київ","lat":"50.435189","lng":"30.504130"},{"id":"110","title":"вул.Володимирська","city":"Київ","lat":"50.433973","lng":"30.510246"},{"id":"111","title":"вул.Жилянська","city":"Київ","lat":"50.433327","lng":"30.513369"},{"id":"112","title":"вул.Фізкультури","city":"Київ","lat":"50.431958","lng":"30.513416"},{"id":"113","title":"вул.Ділова","city":"Київ","lat":"50.429611","lng":"30.513314"},{"id":"114","title":"вул.Федорова","city":"Київ","lat":"50.427330","lng":"30.513781"},{"id":"115","title":"вул.Лабораторна","city":"Київ","lat":"50.424191","lng":"30.515684"},{"id":"116","title":"Володимирський ринок","city":"Київ","lat":"50.420258","lng":"30.518221"},{"id":"117","title":"вул.Тверська","city":"Київ","lat":"50.418164","lng":"30.519547"},{"id":"118","title":"вул.Ковпака","city":"Київ","lat":"50.416096","lng":"30.520834"},{"id":"162","title":"вул.Лятошинського","city":"Київ","lat":"50.378799","lng":"30.446103"},{"id":"163","title":"вул.Лятошинського","city":"Київ","lat":"50.379699","lng":"30.446151"},{"id":"164","title":"Академія праці","city":"Київ","lat":"50.373791","lng":"30.453001"},{"id":"165","title":"ж/м Теремки-1","city":"Київ","lat":"50.375248","lng":"30.452229"},{"id":"166","title":"вул.Теремківська","city":"Київ","lat":"50.370960","lng":"30.457067"},{"id":"167","title":"пл.Одеська","city":"Київ","lat":"50.369789","lng":"30.458292"},{"id":"168","title":"пл.Одеська","city":"Київ","lat":"50.371758","lng":"30.457922"},{"id":"169","title":"Храм (пр-т Академіка Глушкова)","city":"Київ","lat":"50.372051","lng":"30.461817"},{"id":"170","title":"вул.Васильківська (ВДНГ)","city":"Київ","lat":"50.381931","lng":"30.477802"},{"id":"171","title":"Бювет","city":"Київ","lat":"50.386976","lng":"30.480975"},{"id":"172","title":"КНУ Шевченка","city":"Київ","lat":"50.386666","lng":"30.480414"},{"id":"173","title":"вул.Михайла Ломоносова","city":"Київ","lat":"50.390408","lng":"30.483319"},{"id":"174","title":"вул.Михайла Ломоносова","city":"Київ","lat":"50.389355","lng":"30.482225"},{"id":"175","title":"ст.м.Васильківська","city":"Київ","lat":"50.392971","lng":"30.486807"},{"id":"176","title":"ст.м.Васильківська","city":"Київ","lat":"50.393551","lng":"30.488758"},{"id":"177","title":"Фабрика Киянка","city":"Київ","lat":"50.393654","lng":"30.490711"},{"id":"178","title":"Автобусний парк №1","city":"Київ","lat":"50.394814","lng":"30.497744"},{"id":"179","title":"Автобусний парк №1","city":"Київ","lat":"50.394699","lng":"30.496102"},{"id":"180","title":"вул.Михайла Стельмаха","city":"Київ","lat":"50.395574","lng":"30.501755"},{"id":"181","title":"вул.Михайла Стельмаха","city":"Київ","lat":"50.395863","lng":"30.502449"},{"id":"182","title":"ст.м.Голосіївська","city":"Київ","lat":"50.397583","lng":"30.508505"},{"id":"183","title":"ст.м.Либідська","city":"Київ","lat":"50.412498","lng":"30.525974"},{"id":"184","title":"вул.Івана Кудрі","city":"Київ","lat":"50.413502","lng":"30.525618"},{"id":"185","title":"вул.Філатова","city":"Київ","lat":"50.414562","lng":"30.531296"},{"id":"186","title":"вул.Глазунової","city":"Київ","lat":"50.416925","lng":"30.537432"},{"id":"187","title":"готель Дружба","city":"Київ","lat":"50.412100","lng":"30.529547"},{"id":"188","title":"вул.Чеська","city":"Київ","lat":"50.415112","lng":"30.538489"},{"id":"189","title":"вул.Патріса Лумумби","city":"Київ","lat":"50.419009","lng":"30.539761"},{"id":"190","title":"вул.Івана Кудрі (бульвар Лесі Українки)","city":"Київ","lat":"50.421825","lng":"30.544910"},{"id":"191","title":"ст.м.Дружби Народів","city":"Київ","lat":"50.418229","lng":"30.544503"},{"id":"192","title":"ст.м.Дружби Народів","city":"Київ","lat":"50.417764","lng":"30.543671"},{"id":"263","title":"вул.Литвиненко-Вольгемут","city":"Київ","lat":"50.419012","lng":"30.373777"},{"id":"264","title":"вул.Литвиненко-Вольгемут","city":"Київ","lat":"50.418624","lng":"30.373163"},{"id":"265","title":"вул.Зодчих","city":"Київ","lat":"50.421639","lng":"30.369999"},{"id":"266","title":"пр-т Леся Курбаса","city":"Київ","lat":"50.426994","lng":"30.365618"},{"id":"267","title":"пр-т Леся Курбаса","city":"Київ","lat":"50.425066","lng":"30.366121"},{"id":"268","title":"ВО Електронмаш","city":"Київ","lat":"50.430870","lng":"30.362646"},{"id":"269","title":"ВО Електронмаш","city":"Київ","lat":"50.431492","lng":"30.361187"},{"id":"270","title":"вул.Жмеринська","city":"Київ","lat":"50.437321","lng":"30.360075"},{"id":"271","title":"вул.Жмеринська","city":"Київ","lat":"50.437237","lng":"30.359142"},{"id":"272","title":"вул.Янтарна","city":"Київ","lat":"50.443375","lng":"30.359131"},{"id":"273","title":"вул.Янтарна","city":"Київ","lat":"50.443504","lng":"30.358149"},{"id":"274","title":"Святошинське кладовище","city":"Київ","lat":"50.448166","lng":"30.358313"},{"id":"275","title":"вул.Верховинна","city":"Київ","lat":"50.452067","lng":"30.357860"},{"id":"276","title":"вул.Верховинна","city":"Київ","lat":"50.452232","lng":"30.357212"},{"id":"277","title":"пр-т Перемоги","city":"Київ","lat":"50.455666","lng":"30.357296"},{"id":"278","title":"пр-т Перемоги","city":"Київ","lat":"50.455067","lng":"30.356710"},{"id":"279","title":"вул.Ірпінська","city":"Київ","lat":"50.460384","lng":"30.356455"},{"id":"280","title":"вул.Ірпінська","city":"Київ","lat":"50.459801","lng":"30.356056"},{"id":"281","title":"пр-т Академіка Палладіна","city":"Київ","lat":"50.463347","lng":"30.355943"},{"id":"282","title":"ст.м.Академмістечко","city":"Київ","lat":"50.463412","lng":"30.355951"},{"id":"283","title":"ст.м.Академмістечко","city":"Київ","lat":"50.464340","lng":"30.355375"},{"id":"333","title":"Аеропорт Київ (термінал А)","city":"Київ","lat":"50.413741","lng":"30.445009"},{"id":"334","title":"вул.Андерса","city":"Київ","lat":"50.415407","lng":"30.448393"},{"id":"335","title":"вул.Андерса","city":"Київ","lat":"50.415344","lng":"30.447744"},{"id":"336","title":"вул.Вінницька","city":"Київ","lat":"50.418709","lng":"30.452484"},{"id":"337","title":"вул.Вінницька","city":"Київ","lat":"50.418293","lng":"30.451653"},{"id":"339","title":"Райдержадміністрація","city":"Київ","lat":"50.421215","lng":"30.456306"},{"id":"340","title":"вул.Смілянська","city":"Київ","lat":"50.421130","lng":"30.454800"},{"id":"341","title":"вул.Смілянська","city":"Київ","lat":"50.421418","lng":"30.457755"},{"id":"342","title":"пл.Севастопольська","city":"Київ","lat":"50.424462","lng":"30.458164"},{"id":"343","title":"пл.Севастопольська","city":"Київ","lat":"50.425893","lng":"30.460803"},{"id":"344","title":"вул.Освіти","city":"Київ","lat":"50.427587","lng":"30.464511"},{"id":"345","title":"вул.Освіти","city":"Київ","lat":"50.427456","lng":"30.463585"},{"id":"346","title":"пл.Солом`янська","city":"Київ","lat":"50.431360","lng":"30.469118"},{"id":"347","title":"пл.Солом`янська","city":"Київ","lat":"50.431435","lng":"30.468758"},{"id":"348","title":"вул.Курська","city":"Київ","lat":"50.435124","lng":"30.472790"},{"id":"349","title":"вул.Курська","city":"Київ","lat":"50.434524","lng":"30.471812"},{"id":"350","title":"вул.Юліуса Фучика","city":"Київ","lat":"50.438000","lng":"30.476069"},{"id":"351","title":"вул.Юліуса Фучика","city":"Київ","lat":"50.437393","lng":"30.474630"},{"id":"352","title":"вул.Івана Огієнка","city":"Київ","lat":"50.442439","lng":"30.480419"},{"id":"353","title":"вул.Івана Огієнка","city":"Київ","lat":"50.441499","lng":"30.479607"},{"id":"355","title":"Стадіон","city":"Київ","lat":"50.444550","lng":"30.481055"},{"id":"356","title":"Стадіон","city":"Київ","lat":"50.444824","lng":"30.480784"},{"id":"357","title":"вул.Пестеля","city":"Київ","lat":"50.444958","lng":"30.489882"},{"id":"358","title":"Залізничний вокзал Південний","city":"Київ","lat":"50.438358","lng":"30.486822"},{"id":"359","title":"пл.Петра Кривоноса","city":"Київ","lat":"50.436946","lng":"30.490463"},{"id":"360","title":"ТЕЦ-3","city":"Київ","lat":"50.439804","lng":"30.496300"},{"id":"361","title":"вул.Старовокзальна","city":"Київ","lat":"50.444626","lng":"30.492933"},{"id":"362","title":"вул.Пестеля","city":"Київ","lat":"50.445065","lng":"30.489969"},{"id":"413","title":"ВІДІ Автосіті","city":"Київ","lat":"50.413605","lng":"30.381104"},{"id":"414","title":"ВІДІ Автосіті","city":"Київ","lat":"50.413914","lng":"30.381982"},{"id":"415","title":"Південна Борщагівка","city":"Київ","lat":"50.407795","lng":"30.390352"},{"id":"416","title":"Південна Борщагівка","city":"Київ","lat":"50.408243","lng":"30.390918"},{"id":"417","title":"пр-т Перемоги","city":"Київ","lat":"50.455421","lng":"30.360167"},{"id":"418","title":"ст.м.Житомирська","city":"Київ","lat":"50.455710","lng":"30.364890"},{"id":"419","title":"ст.м.Житомирська","city":"Київ","lat":"50.456093","lng":"30.365173"},{"id":"420","title":"б-р Академіка Вернадського","city":"Київ","lat":"50.456711","lng":"30.379454"},{"id":"421","title":"б-р Академіка Вернадського","city":"Київ","lat":"50.456989","lng":"30.378834"},{"id":"422","title":"Івана Крамського","city":"Київ","lat":"50.456210","lng":"30.372581"},{"id":"423","title":"Івана Крамського","city":"Київ","lat":"50.456573","lng":"30.372428"},{"id":"424","title":"вул.Генерала Вітрука","city":"Київ","lat":"50.456992","lng":"30.383523"},{"id":"425","title":"вул.Генерала Вітрука","city":"Київ","lat":"50.457395","lng":"30.384340"},{"id":"426","title":"ст.м.Святошин","city":"Київ","lat":"50.457646","lng":"30.393392"},{"id":"427","title":"ст.м.Святошин","city":"Київ","lat":"50.457986","lng":"30.393103"},{"id":"428","title":"вул.Невська","city":"Київ","lat":"50.458122","lng":"30.399776"},{"id":"429","title":"вул.Невська","city":"Київ","lat":"50.458344","lng":"30.398676"},{"id":"430","title":"Данила Щербаківського","city":"Київ","lat":"50.458310","lng":"30.403579"},{"id":"431","title":"ст.м.Нивки","city":"Київ","lat":"50.458764","lng":"30.404430"},{"id":"432","title":"ст.м.Нивки","city":"Київ","lat":"50.458679","lng":"30.403343"},{"id":"437","title":"Парк Нивки","city":"Київ","lat":"50.458856","lng":"30.411964"},{"id":"438","title":"Парк Нивки","city":"Київ","lat":"50.459307","lng":"30.411969"},{"id":"439","title":"ст.м.Берестейська","city":"Київ","lat":"50.458556","lng":"30.420027"},{"id":"440","title":"ст.м.Берестейська","city":"Київ","lat":"50.458628","lng":"30.421800"},{"id":"441","title":"вул.Полковника Шутова","city":"Київ","lat":"50.456855","lng":"30.430482"},{"id":"442","title":"вул.Полковника Шутова","city":"Київ","lat":"50.457449","lng":"30.429275"},{"id":"443","title":"вул.Гарматна","city":"Київ","lat":"50.455820","lng":"30.436855"},{"id":"444","title":"вул.Гарматна","city":"Київ","lat":"50.456348","lng":"30.435589"},{"id":"445","title":"ст.м.Шулявська","city":"Київ","lat":"50.454529","lng":"30.445068"},{"id":"446","title":"ст.м.Шулявська","city":"Київ","lat":"50.454824","lng":"30.445202"},{"id":"447","title":"ст.м.Шулявська","city":"Київ","lat":"50.454010","lng":"30.448308"},{"id":"448","title":"Парк ім.Пушкіна","city":"Київ","lat":"50.453045","lng":"30.453742"},{"id":"449","title":"Парк ім.Пушкіна","city":"Київ","lat":"50.453646","lng":"30.452439"},{"id":"450","title":"Зоопарк","city":"Київ","lat":"50.451954","lng":"30.460766"},{"id":"451","title":"Зоопарк","city":"Київ","lat":"50.452448","lng":"30.459536"},{"id":"452","title":"ст.м.Політехнічний інститут","city":"Київ","lat":"50.450820","lng":"30.467588"},{"id":"453","title":"ст.м.Політехнічний інститут","city":"Київ","lat":"50.451363","lng":"30.466086"},{"id":"454","title":"вул.Шолуденка","city":"Київ","lat":"50.449735","lng":"30.474202"},{"id":"455","title":"вул.Шолуденка","city":"Київ","lat":"50.449907","lng":"30.475007"},{"id":"456","title":"Центральний палац урочистих подій","city":"Київ","lat":"50.448955","lng":"30.479025"},{"id":"457","title":"Центральний палац урочистих подій","city":"Київ","lat":"50.449071","lng":"30.480049"},{"id":"458","title":"Повітрофлотський шляхопровід","city":"Київ","lat":"50.448000","lng":"30.484175"},{"id":"459","title":"Повітрофлотський шляхопровід","city":"Київ","lat":"50.448346","lng":"30.484832"},{"id":"460","title":"вул.Бульварно-Кудрявська","city":"Київ","lat":"50.447148","lng":"30.489432"},{"id":"461","title":"пл.Перемоги","city":"Київ","lat":"50.446758","lng":"30.491705"},{"id":"462","title":"пл.Перемоги","city":"Київ","lat":"50.447182","lng":"30.492811"},{"id":"478","title":"СШТ Кільцева трамвая","city":"Київ","lat":"50.424197","lng":"30.367587"},{"id":"500","title":"вул.Патріаса Лумумби","city":"Київ","lat":"50.418638","lng":"30.538861"},{"id":"501","title":"вул.Філатова","city":"Київ","lat":"50.414853","lng":"30.531530"},{"id":"502","title":"ст.м.Либідська","city":"Київ","lat":"50.413659","lng":"30.525472"},{"id":"519","title":"Садок Вишневий","city":"Гатне","lat":"50.369421","lng":"30.390902"},{"id":"520","title":"Садок Вишневий","city":"Гатне","lat":"50.369517","lng":"30.391036"},{"id":"521","title":"вул.Жулянська","city":"Гатне","lat":"50.365860","lng":"30.396372"},{"id":"522","title":"вул.Жулянська","city":"Гатне","lat":"50.366035","lng":"30.396461"},{"id":"523","title":"вул.Жовтнева","city":"Гатне","lat":"50.359684","lng":"30.395313"},{"id":"524","title":"вул.Жовтнева","city":"Гатне","lat":"50.359867","lng":"30.395418"},{"id":"525","title":"Сільська рада","city":"Гатне","lat":"50.358196","lng":"30.396305"},{"id":"526","title":"Сільська рада","city":"Гатне","lat":"50.358219","lng":"30.396627"},{"id":"527","title":"вул.Київська","city":"Гатне","lat":"50.355625","lng":"30.406122"},{"id":"528","title":"вул.Київська","city":"Гатне","lat":"50.355961","lng":"30.405687"},{"id":"529","title":"вул.Дружби","city":"Гатне","lat":"50.350632","lng":"30.415023"},{"id":"530","title":"вул.Дружби","city":"Гатне","lat":"50.350907","lng":"30.414948"},{"id":"126","title":"вул.Маяковського","city":"Тарасівка","lat":"50.338654","lng":"30.320646"},{"id":"127","title":"вул.Маяковського","city":"Тарасівка","lat":"50.338540","lng":"30.320426"},{"id":"128","title":"вул.Набережна","city":"Тарасівка","lat":"50.341640","lng":"30.320756"},{"id":"129","title":"вул.Набережна","city":"Тарасівка","lat":"50.341580","lng":"30.320616"},{"id":"130","title":"вул.Шевченка","city":"Тарасівка","lat":"50.344383","lng":"30.324662"},{"id":"131","title":"вул.Шевченка","city":"Тарасівка","lat":"50.344226","lng":"30.323483"},{"id":"315","title":"Залізничний вокзал Тарасівка","city":"Тарасівка","lat":"50.343240","lng":"30.302311"},{"id":"316","title":"Залізничний вокзал Тарасівка","city":"Тарасівка","lat":"50.343006","lng":"30.302254"},{"id":"317","title":"Амбулаторія","city":"Тарасівка","lat":"50.342854","lng":"30.309324"},{"id":"318","title":"Амбулаторія","city":"Тарасівка","lat":"50.343025","lng":"30.307825"},{"id":"320","title":"Церква","city":"Тарасівка","lat":"50.343464","lng":"30.315804"},{"id":"321","title":"Церква","city":"Тарасівка","lat":"50.343826","lng":"30.316397"},{"id":"479","title":"вул.Київська","city":"Тарасівка","lat":"50.344391","lng":"30.323854"},{"id":"480","title":"вул.Київська","city":"Тарасівка","lat":"50.344273","lng":"30.323571"},{"id":"481","title":"Тарасівське кладовище","city":"Тарасівка","lat":"50.348996","lng":"30.330516"},{"id":"482","title":"Тарасівське кладовище","city":"Тарасівка","lat":"50.349068","lng":"30.330172"},{"id":"483","title":"вул.Пролетарська","city":"Тарасівка","lat":"50.344103","lng":"30.326902"},{"id":"484","title":"Майдан","city":"Тарасівка","lat":"50.344358","lng":"30.331718"},{"id":"485","title":"Майдан","city":"Тарасівка","lat":"50.344607","lng":"30.331083"},{"id":"486","title":"вул.Теплична","city":"Тарасівка","lat":"50.343826","lng":"30.335854"},{"id":"487","title":"вул.Теплична","city":"Тарасівка","lat":"50.343934","lng":"30.336353"},{"id":"488","title":"Наше містечко","city":"Тарасівка","lat":"50.342057","lng":"30.352611"},{"id":"489","title":"Наше містечко","city":"Тарасівка","lat":"50.342427","lng":"30.352128"},{"id":"148","title":"ж/к Піонерський квартал","city":"Вишневе","lat":"50.382462","lng":"30.385371"},{"id":"149","title":"ж/к Піонерський квартал","city":"Вишневе","lat":"50.382404","lng":"30.385051"},{"id":"150","title":"магазин Фора","city":"Вишневе","lat":"50.387812","lng":"30.392290"},{"id":"151","title":"магазин Фора","city":"Вишневе","lat":"50.387595","lng":"30.391735"},{"id":"152","title":"с-т Рибний світ","city":"Вишневе","lat":"50.390538","lng":"30.399288"},{"id":"153","title":"с-т Рибний світ","city":"Вишневе","lat":"50.390642","lng":"30.398433"},{"id":"154","title":"Вишневе (Жуляни)","city":"Вишневе","lat":"50.395892","lng":"30.415978"},{"id":"376","title":"вул.Промислова","city":"Вишневе","lat":"50.384729","lng":"30.349958"},{"id":"377","title":"вул.Промислова","city":"Вишневе","lat":"50.384492","lng":"30.348881"},{"id":"379","title":"ЖК Smart Дім","city":"Вишневе","lat":"50.387817","lng":"30.356186"},{"id":"380","title":"ЖК Smart Дім","city":"Вишневе","lat":"50.388313","lng":"30.356840"},{"id":"381","title":"Папірус","city":"Вишневе","lat":"50.389835","lng":"30.360428"},{"id":"382","title":"Папірус","city":"Вишневе","lat":"50.389512","lng":"30.359253"},{"id":"383","title":"вул.Жовтнева","city":"Вишневе","lat":"50.392303","lng":"30.364382"},{"id":"384","title":"вул.Жовтнева","city":"Вишневе","lat":"50.391956","lng":"30.363781"},{"id":"385","title":"вул.Київська","city":"Вишневе","lat":"50.398530","lng":"30.368987"},{"id":"386","title":"вул.Київська","city":"Вишневе","lat":"50.398132","lng":"30.368282"},{"id":"387","title":"Храм","city":"Вишневе","lat":"50.395969","lng":"30.368582"},{"id":"388","title":"Храм","city":"Вишневе","lat":"50.396306","lng":"30.368375"},{"id":"389","title":"Магазин Фора","city":"Вишневе","lat":"50.393144","lng":"30.368544"},{"id":"390","title":"Ринок квітів","city":"Вишневе","lat":"50.393749","lng":"30.368300"},{"id":"391","title":"вул.Лесі Українки","city":"Вишневе","lat":"50.388910","lng":"30.368200"},{"id":"392","title":"вул.Лесі Українки","city":"Вишневе","lat":"50.388714","lng":"30.367965"},{"id":"393","title":"вул.Ломоносова","city":"Вишневе","lat":"50.388256","lng":"30.361790"},{"id":"503","title":"зал.ст. Вишневе","city":"Вишневе","lat":"50.384140","lng":"30.370636"},{"id":"504","title":"зал.ст. Вишневе","city":"Вишневе","lat":"50.384216","lng":"30.370504"},{"id":"505","title":"вул.Балукова","city":"Вишневе","lat":"50.382404","lng":"30.372978"},{"id":"506","title":"вул.Балукова","city":"Вишневе","lat":"50.382207","lng":"30.372667"},{"id":"507","title":"вул.Івана Франка","city":"Вишневе","lat":"50.377809","lng":"30.371372"},{"id":"508","title":"вул.Івана Франка","city":"Вишневе","lat":"50.377689","lng":"30.371553"},{"id":"533","title":"зал.ст. Вишневе","city":"Вишневе","lat":"50.385031","lng":"30.373861"},{"id":"534","title":"зал.ст. Вишневе","city":"Вишневе","lat":"50.385004","lng":"30.373238"},{"id":"155","title":"Кільцева дорога","city":"Жуляни","lat":"50.398280","lng":"30.418844"},{"id":"156","title":"Шляхопровід","city":"Жуляни","lat":"50.394418","lng":"30.425681"},{"id":"157","title":"Шляхопровід","city":"Жуляни","lat":"50.394586","lng":"30.426042"},{"id":"158","title":"Жуляни-2","city":"Жуляни","lat":"50.389462","lng":"30.431727"},{"id":"159","title":"Жуляни-2","city":"Жуляни","lat":"50.389669","lng":"30.432601"},{"id":"160","title":"Жуляни-1","city":"Жуляни","lat":"50.385025","lng":"30.437702"},{"id":"161","title":"Жуляни-1","city":"Жуляни","lat":"50.386238","lng":"30.437286"},{"id":"326","title":"Кільцева дорога","city":"Жуляни","lat":"50.398931","lng":"30.420353"},{"id":"327","title":"зал.ст. Київ-Волинський","city":"Жуляни","lat":"50.411517","lng":"30.432292"},{"id":"328","title":"зал.ст. Київ-Волинський","city":"Жуляни","lat":"50.411423","lng":"30.431926"},{"id":"329","title":"Аеропорт Київ","city":"Жуляни","lat":"50.411760","lng":"30.438225"},{"id":"330","title":"Аеропорт Київ","city":"Жуляни","lat":"50.411588","lng":"30.437112"},{"id":"331","title":"вул.Волинська","city":"Жуляни","lat":"50.414215","lng":"30.442746"},{"id":"332","title":"вул.Волинська","city":"Жуляни","lat":"50.414296","lng":"30.440492"},{"id":"222","title":"Клумба","city":"Білогородка","lat":"50.367457","lng":"30.227987"},{"id":"223","title":"Клумба","city":"Білогородка","lat":"50.366979","lng":"30.227078"},{"id":"224","title":"Магазин","city":"Білогородка","lat":"50.375309","lng":"30.227975"},{"id":"225","title":"Магазин","city":"Білогородка","lat":"50.375491","lng":"30.227525"},{"id":"226","title":"Школа №2","city":"Білогородка","lat":"50.379083","lng":"30.225014"},{"id":"227","title":"Школа №2","city":"Білогородка","lat":"50.378571","lng":"30.224971"},{"id":"228","title":"Бювет","city":"Білогородка","lat":"50.386646","lng":"30.223617"},{"id":"229","title":"Бювет","city":"Білогородка","lat":"50.386408","lng":"30.223043"},{"id":"230","title":"Корчма","city":"Білогородка","lat":"50.389444","lng":"30.226768"},{"id":"231","title":"вул.Калініна","city":"Білогородка","lat":"50.389545","lng":"30.226658"},{"id":"232","title":"Торговий центр","city":"Білогородка","lat":"50.392876","lng":"30.234420"},{"id":"233","title":" Торговий центр","city":"Білогородка","lat":"50.392636","lng":"30.233887"},{"id":"234","title":"Далекий Яр","city":"Святопетрівське","lat":"50.390559","lng":"30.289897"},{"id":"235","title":"Далекий Яр","city":"Святопетрівське","lat":"50.390706","lng":"30.289350"},{"id":"236","title":"Фармацевтичний завод Фалбі","city":"Святопетрівське","lat":"50.392443","lng":"30.300776"},{"id":"237","title":"Фармацевтичний завод Фалбі","city":"Святопетрівське","lat":"50.392330","lng":"30.299655"},{"id":"238","title":"вул.Польова","city":"Святопетрівське","lat":"50.395217","lng":"30.311552"},{"id":"239","title":"вул.Польова","city":"Святопетрівське","lat":"50.395383","lng":"30.311096"},{"id":"240","title":"ЖК Петрівський квартал","city":"Святопетрівське","lat":"50.396257","lng":"30.315886"},{"id":"241","title":"ЖК Петрівський квартал","city":"Святопетрівське","lat":"50.396212","lng":"30.313825"},{"id":"242","title":"Військова частина","city":"Святопетрівське","lat":"50.397413","lng":"30.320417"},{"id":"243","title":"Військова частина","city":"Святопетрівське","lat":"50.397478","lng":"30.318577"},{"id":"368","title":"Амтел","city":"Святопетрівське","lat":"50.361360","lng":"30.306983"},{"id":"369","title":"Амтел","city":"Святопетрівське","lat":"50.361397","lng":"30.306299"},{"id":"370","title":"Асфальтовий завод","city":"Святопетрівське","lat":"50.371785","lng":"30.323057"},{"id":"371","title":"Асфальтовий завод","city":"Святопетрівське","lat":"50.371560","lng":"30.322282"},{"id":"372","title":"Центральна вулиця","city":"Святопетрівське","lat":"50.375603","lng":"30.328898"},{"id":"373","title":"Центральна вулиця","city":"Святопетрівське","lat":"50.375732","lng":"30.328655"},{"id":"472","title":"вул.Шевченка","city":"Святопетрівське","lat":"50.379856","lng":"30.325962"},{"id":"473","title":"вул.Шевченка","city":"Святопетрівське","lat":"50.379887","lng":"30.325643"},{"id":"474","title":"Магазин","city":"Святопетрівське","lat":"50.383911","lng":"30.321716"},{"id":"475","title":"Магазин","city":"Святопетрівське","lat":"50.383911","lng":"30.321482"},{"id":"476","title":"Пам`ятник","city":"Святопетрівське","lat":"50.387173","lng":"30.318312"},{"id":"477","title":"Пам`ятник","city":"Святопетрівське","lat":"50.387176","lng":"30.318006"},{"id":"244","title":"ЖК Софіївська сфера","city":"Софіївська Борщаговка","lat":"50.401020","lng":"30.329395"},{"id":"245","title":"ЖК Софіївська сфера","city":"Софіївська Борщаговка","lat":"50.401048","lng":"30.328655"},{"id":"246","title":"ЖК Уютний квартал","city":"Софіївська Борщаговка","lat":"50.403373","lng":"30.334828"},{"id":"247","title":"ЖК Уютний квартал","city":"Софіївська Борщаговка","lat":"50.403730","lng":"30.334811"},{"id":"248","title":"ЖК Львівський маєток","city":"Софіївська Борщаговка","lat":"50.404256","lng":"30.336790"},{"id":"249","title":"ЖК Львівський маєток","city":"Софіївська Борщаговка","lat":"50.404348","lng":"30.336224"},{"id":"250","title":"ЖК Софіївський квартал","city":"Софіївська Борщаговка","lat":"50.406634","lng":"30.342103"},{"id":"251","title":"ЖК Софіївський квартал","city":"Софіївська Борщаговка","lat":"50.406500","lng":"30.341417"},{"id":"252","title":"ЖК Софія клубний","city":"Софіївська Борщаговка","lat":"50.406961","lng":"30.342880"},{"id":"253","title":"ЖК Софія клубний","city":"Софіївська Борщаговка","lat":"50.407162","lng":"30.342860"},{"id":"254","title":"Софіївське кладовище","city":"Софіївська Борщаговка","lat":"50.408873","lng":"30.357134"},{"id":"255","title":"Софіївське кладовище","city":"Софіївська Борщаговка","lat":"50.409027","lng":"30.357698"},{"id":"256","title":"Віват","city":"Софіївська Борщаговка","lat":"50.409668","lng":"30.366329"},{"id":"257","title":"Віват","city":"Софіївська Борщаговка","lat":"50.410553","lng":"30.366962"},{"id":"258","title":"вул.Соборна","city":"Софіївська Борщаговка","lat":"50.415051","lng":"30.372791"},{"id":"259","title":"вул.Соборна","city":"Софіївська Борщаговка","lat":"50.414597","lng":"30.371820"},{"id":"401","title":"ж/к Софія","city":"Софіївська Борщаговка","lat":"50.402237","lng":"30.373222"},{"id":"402","title":"ж/к Софія","city":"Софіївська Борщаговка","lat":"50.401963","lng":"30.372385"},{"id":"403","title":"1-й кілометр","city":"Софіївська Борщаговка","lat":"50.404247","lng":"30.375502"},{"id":"405","title":"1-й кілометр","city":"Софіївська Борщаговка","lat":"50.403960","lng":"30.374743"},{"id":"406","title":"вул.Софіївська","city":"Софіївська Борщаговка","lat":"50.407867","lng":"30.379597"},{"id":"407","title":"вул.Софіївська","city":"Софіївська Борщаговка","lat":"50.407696","lng":"30.379086"},{"id":"408","title":"АвтоЗАЗ","city":"Софіївська Борщаговка","lat":"50.410492","lng":"30.384514"},{"id":"409","title":"АвтоЗАЗ","city":"Софіївська Борщаговка","lat":"50.410680","lng":"30.382980"},{"id":"490","title":"вул.Шевченка","city":"Юрівка","lat":"50.340568","lng":"30.357751"},{"id":"491","title":"вул.Шевченка","city":"Юрівка","lat":"50.340900","lng":"30.357183"},{"id":"492","title":"Водонапірна вежа","city":"Юрівка","lat":"50.337350","lng":"30.360557"},{"id":"493","title":"Водонапірна вежа","city":"Юрівка","lat":"50.337644","lng":"30.360310"},{"id":"494","title":"Шкільний провулок","city":"Юрівка","lat":"50.335664","lng":"30.365106"},{"id":"495","title":"Шкільний провулок","city":"Юрівка","lat":"50.335931","lng":"30.364864"},{"id":"496","title":"Кладовище","city":"Юрівка","lat":"50.331652","lng":"30.370073"},{"id":"497","title":"Кладовище","city":"Юрівка","lat":"50.332433","lng":"30.370266"},{"id":"498","title":"Школа","city":"Юрівка","lat":"50.329767","lng":"30.373658"},{"id":"499","title":"Школа","city":"Юрівка","lat":"50.330017","lng":"30.373668"}]